City_ID,City,Country,Max Temp,Description,Lat,Lng,Hotel Name
0,Sorong,ID,79.41,overcast clouds,-0.8833,131.25,
1,Albany,US,46.17,clear sky,42.6001,-73.9662,
2,Avarua,CK,73.45,overcast clouds,-21.2078,-159.775,
3,Cidreira,BR,71.8,clear sky,-30.1811,-50.2056,
4,Jamestown,US,42.03,clear sky,42.097,-79.2353,
5,Vaini,TO,71.76,few clouds,-21.2,-175.2,
6,Punta Arenas,CL,42.91,light intensity drizzle,-53.15,-70.9167,
7,Terekli-Mekteb,RU,60.76,few clouds,44.1671,45.8698,
8,Rikitea,PF,74.17,scattered clouds,-23.1203,-134.9692,
9,Ushuaia,AR,42.42,drizzle,-54.8,-68.3,
10,Hirara,JP,66.11,light rain,24.8,125.2833,
11,Yemelyanovo,RU,31.08,scattered clouds,56.1681,92.6767,
12,Kapaa,US,71.92,scattered clouds,22.0752,-159.319,
13,Port Elizabeth,ZA,64.69,broken clouds,-33.918,25.5701,
14,Mataura,NZ,46.13,broken clouds,-46.1927,168.8643,
15,Eureka,US,53.2,clear sky,40.8021,-124.1637,
16,Soyo,AO,78.49,light rain,-6.1349,12.3689,
17,Busselton,AU,71.85,overcast clouds,-33.65,115.3333,
18,Padang,ID,76.44,clear sky,-0.9492,100.3543,
20,Mar Del Plata,AR,68.02,few clouds,-38.0023,-57.5575,
21,Sabang,ID,82.69,moderate rain,5.8933,95.3214,
22,Nicolas De Pierola,PE,55.69,broken clouds,-11.95,-76.7,
23,Castro,BR,65.3,overcast clouds,-24.7911,-50.0119,
25,Zaragoza,ES,50.45,few clouds,41.6561,-0.8773,
26,Tabora,TZ,71.08,scattered clouds,-5.0167,32.8,
27,Itarema,BR,82.24,overcast clouds,-2.9248,-39.9167,
28,New Norfolk,AU,54.9,broken clouds,-42.7826,147.0587,
29,Merauke,ID,79.54,overcast clouds,-8.4667,140.3333,
30,Mutum,BR,82.76,broken clouds,-19.8,-41.4383,
31,Broome,US,41.63,overcast clouds,42.2506,-75.833,
32,Isangel,VU,79.84,light rain,-19.55,169.2667,
34,Betlitsa,RU,31.28,snow,54.0095,33.9588,
35,Saint George,US,65.62,clear sky,37.1041,-113.5841,
36,Mandalgovi,MN,39.0,clear sky,45.7625,106.2708,
38,Point Pedro,LK,81.21,few clouds,9.8167,80.2333,
39,Touros,BR,85.12,overcast clouds,-5.1989,-35.4608,
40,Buraydah,SA,88.25,overcast clouds,26.326,43.975,
42,Bengkulu,ID,77.54,overcast clouds,-3.8004,102.2655,
43,Hermanus,ZA,63.81,overcast clouds,-34.4187,19.2345,
44,Bambous Virieux,MU,75.22,heavy intensity rain,-20.3428,57.7575,
45,Carnarvon,AU,77.07,scattered clouds,-24.8667,113.6333,
46,Bandarbeyla,SO,79.81,few clouds,9.4942,50.8122,
47,Guerrero Negro,MX,64.06,clear sky,27.9769,-114.0611,
48,Chissamba,AO,68.41,light rain,-12.1667,17.3333,
49,Bluff,NZ,57.4,broken clouds,-46.6,168.3333,
51,La Ligua,CL,73.22,clear sky,-32.4524,-71.2311,
52,Matagami,CA,35.71,broken clouds,49.7502,-77.6328,
53,Cape Town,ZA,70.21,few clouds,-33.9258,18.4232,
54,Taltal,CL,67.57,clear sky,-25.4,-70.4833,
55,Chakia,IN,83.59,clear sky,26.4167,85.05,
56,Jamame,SO,80.91,broken clouds,0.0722,42.7506,
57,Ponta Do Sol,PT,65.12,broken clouds,32.6667,-17.1,
58,Katsuura,JP,51.51,moderate rain,35.1333,140.3,
59,Constitucion,CL,65.57,clear sky,-35.3333,-72.4167,
60,Hithadhoo,MV,83.32,few clouds,-0.6,73.0833,
61,Mareeba,AU,68.72,overcast clouds,-17.0,145.4333,
62,Desur,IN,79.74,scattered clouds,12.4333,79.4833,
63,Kalemie,CD,74.66,overcast clouds,-5.9475,29.1947,
65,Torres,BR,70.48,scattered clouds,-29.3353,-49.7269,
66,Bredasdorp,ZA,62.62,light rain,-34.5322,20.0403,
67,Ludvika,SE,40.77,scattered clouds,60.1496,15.1878,
69,Atuona,PF,78.67,clear sky,-9.8,-139.0333,
70,Cayenne,GF,80.1,moderate rain,4.9333,-52.3333,
71,Chuy,UY,69.01,scattered clouds,-33.6971,-53.4616,
72,Rio Grande,BR,77.11,clear sky,-32.035,-52.0986,
73,Chipata,ZM,65.55,light rain,-13.6333,32.65,
74,Airai,TL,57.52,few clouds,-8.9266,125.4092,
75,Cabedelo,BR,88.47,broken clouds,-6.9811,-34.8339,
76,Dangara,IN,81.54,clear sky,29.6799,75.8931,
77,Saraland,US,69.42,overcast clouds,30.8207,-88.0706,
78,Murgab,TM,69.67,overcast clouds,37.4966,61.9714,
79,Victoria,HK,61.32,overcast clouds,22.2855,114.1577,
81,Malur,IN,86.02,few clouds,13.0075,77.9378,
82,Kaitangata,NZ,48.69,scattered clouds,-46.2817,169.8464,
83,Kieta,PG,77.92,light rain,-6.2167,155.6333,
84,Conde,BR,87.26,scattered clouds,-7.2597,-34.9075,
85,Lancaster,US,48.7,clear sky,40.2504,-76.2499,
86,Narsaq,GL,44.82,overcast clouds,60.9167,-46.05,
87,Kiunga,PG,72.46,overcast clouds,-6.1219,141.2906,
88,Bethel,US,49.59,clear sky,41.3712,-73.414,
89,Klaksvik,FO,41.92,overcast clouds,62.2266,-6.589,
90,Fortuna,US,52.93,clear sky,40.5982,-124.1573,
92,Moscow,RU,32.23,snow,55.7522,37.6156,
93,Grand Forks,US,35.53,overcast clouds,47.9417,-97.4337,
94,Puerto Ayora,EC,84.16,scattered clouds,-0.7393,-90.3518,
95,Osny,FR,44.85,scattered clouds,49.0594,2.0618,
96,Butaritari,KI,81.39,scattered clouds,3.0707,172.7902,
98,Horadiz,AZ,63.37,scattered clouds,39.4488,47.3353,
99,Hailey,US,50.88,scattered clouds,43.5196,-114.3153,
100,Chicama,PE,66.74,overcast clouds,-7.8447,-79.1469,
101,Port Alfred,ZA,64.18,overcast clouds,-33.5906,26.891,
102,Mackay,AU,71.69,scattered clouds,-21.15,149.2,
103,Sola,VU,79.11,moderate rain,-13.8833,167.55,
104,Nikolskoye,RU,31.89,scattered clouds,59.7035,30.7861,
106,Almaznyy,RU,55.42,broken clouds,48.0448,40.045,
107,Port-Gentil,GA,80.94,overcast clouds,-0.7193,8.7815,
108,Maceio,BR,87.24,scattered clouds,-9.6658,-35.7353,
109,Ribeira Grande,PT,63.0,few clouds,38.5167,-28.7,
110,Lompoc,US,61.92,mist,34.6391,-120.4579,
113,Meulaboh,ID,78.35,overcast clouds,4.1363,96.1285,
114,Hobart,AU,55.26,overcast clouds,-42.8794,147.3294,
115,Nesoddtangen,NO,46.51,broken clouds,59.8655,10.6594,
116,Lagoa,PT,58.89,clear sky,39.05,-27.9833,
117,Glens Falls,US,49.21,clear sky,43.3095,-73.644,
118,Kloulklubed,PW,73.9,overcast clouds,7.0419,134.2556,
119,Hit,IQ,78.12,scattered clouds,33.6416,42.8251,
122,Rocha,UY,72.95,clear sky,-34.4833,-54.3333,
123,Stonewall,CA,30.78,overcast clouds,50.1344,-97.3268,
124,Sungaipenuh,ID,63.37,broken clouds,-2.0833,101.3833,
125,Coffs Harbour,AU,64.13,broken clouds,-30.3,153.1333,
126,Bosaso,SO,80.74,few clouds,11.2842,49.1816,
127,Hilo,US,69.53,moderate rain,19.7297,-155.09,
128,Sao Filipe,CV,72.27,broken clouds,14.8961,-24.4956,
129,Hilton Head Island,US,71.01,clear sky,32.2163,-80.7526,
130,Sitka,US,42.69,overcast clouds,57.0531,-135.33,
131,Shakawe,BW,78.53,broken clouds,-18.3667,21.85,
132,Caravelas,BR,85.3,clear sky,-17.7125,-39.2481,
133,Muros,ES,59.68,clear sky,42.7762,-9.0603,
134,Korla,CN,56.84,broken clouds,41.7597,86.1469,
135,Saldanha,ZA,75.25,clear sky,-33.0117,17.9442,
136,Arkansas City,US,60.62,clear sky,37.062,-97.0384,
137,Beyneu,KZ,63.18,overcast clouds,45.3167,55.2,
138,Komsomolskiy,UZ,65.12,clear sky,40.4272,71.7189,
139,Salalah,OM,82.49,clear sky,17.0151,54.0924,
140,Nara,JP,49.5,overcast clouds,34.6851,135.8049,
142,Faanui,PF,81.93,overcast clouds,-16.4833,-151.75,
145,Olafsvik,IS,41.16,moderate rain,64.8945,-23.7142,
146,Altay,CN,34.47,overcast clouds,47.8667,88.1167,
147,Alice Springs,AU,62.15,scattered clouds,-23.7,133.8833,
149,San Clemente,US,62.78,broken clouds,33.427,-117.612,
150,Zhanaozen,KZ,65.7,scattered clouds,43.3,52.8,
152,Umm Lajj,SA,82.56,scattered clouds,25.0213,37.2685,
153,Ancud,CL,52.23,overcast clouds,-41.8697,-73.8203,
154,Tasiilaq,GL,33.96,snow,65.6145,-37.6368,
155,Minab,IR,77.32,clear sky,27.1467,57.0801,
156,Khazar,RU,62.96,scattered clouds,41.9974,48.3332,
157,Port Lincoln,AU,60.24,broken clouds,-34.7333,135.8667,
158,Sao Luis,BR,89.8,scattered clouds,-2.5297,-44.3028,
159,Bad Wurzach,DE,32.45,light snow,47.9,9.9,
160,Tunceli,TR,55.36,broken clouds,39.1083,39.5471,
161,Torbay,CA,43.57,broken clouds,47.6666,-52.7314,
162,Athabasca,CA,32.41,overcast clouds,54.7169,-113.2854,
163,The Valley,AI,81.1,broken clouds,18.217,-63.0578,
164,Kodiak,US,31.51,broken clouds,57.79,-152.4072,
165,Nalut,LY,79.84,clear sky,30.3333,10.85,
166,Husavik,IS,37.78,overcast clouds,66.0449,-17.3389,
167,Kahului,US,72.84,scattered clouds,20.8947,-156.47,
168,Boone,US,60.39,broken clouds,39.0334,-92.3335,
169,Bumba,CD,74.61,light rain,2.1833,22.4667,
171,Paamiut,GL,34.36,overcast clouds,61.994,-49.6678,
172,Capao Da Canoa,BR,71.11,few clouds,-29.7456,-50.0097,
173,Springfield,US,57.97,overcast clouds,37.2153,-93.2982,
174,Arnoldstein,AT,40.86,overcast clouds,46.5461,13.71,
175,Palmer,US,49.57,few clouds,42.1584,-72.3287,
176,Monzon,ES,54.75,clear sky,41.9108,0.1941,
177,Novo Aripuana,BR,74.75,overcast clouds,-5.1206,-60.3797,
178,Georgetown,MY,78.73,few clouds,5.4112,100.3354,
179,Eirunepe,BR,75.83,overcast clouds,-6.6603,-69.8736,
180,Ilulissat,GL,35.62,few clouds,69.2167,-51.1,
181,Sorland,NO,33.89,light snow,67.667,12.6934,
182,Necochea,AR,68.32,clear sky,-38.5473,-58.7368,
183,Muriwai Beach,NZ,63.86,overcast clouds,-36.8167,174.45,
185,Banda Aceh,ID,80.08,moderate rain,5.5577,95.3222,
186,Kavieng,PG,76.57,moderate rain,-2.5744,150.7967,
187,Sambava,MG,77.9,light rain,-14.2667,50.1667,
189,Yarmouth,US,50.65,clear sky,41.7057,-70.2286,
190,Xai-Xai,MZ,77.92,few clouds,-25.0519,33.6442,
191,Khandbari,NP,69.69,light rain,27.3747,87.2039,
192,Luangwa,ZM,76.05,light rain,-15.6167,30.4167,
195,Zaysan,KZ,41.86,scattered clouds,47.4667,84.8667,
196,Cabo San Lucas,MX,77.61,scattered clouds,22.8909,-109.9124,
198,Nanortalik,GL,38.17,light rain,60.1432,-45.2371,
199,Dawlatabad,AF,65.48,clear sky,36.4141,64.9053,
200,Khash,IR,68.13,clear sky,28.2211,61.2158,
202,Kashi,CN,63.61,broken clouds,39.4547,75.9797,
203,Los Llanos De Aridane,ES,62.35,broken clouds,28.6585,-17.9182,
204,Pleasant Point,NZ,48.06,broken clouds,-44.2667,171.1333,
205,Mitu,CO,77.22,overcast clouds,1.1983,-70.1733,
207,Cervo,ES,48.87,few clouds,43.6702,-7.4101,
208,Ketchikan,US,39.67,moderate rain,55.3422,-131.6461,
209,Dicabisagan,PH,76.57,light rain,17.0818,122.4157,
210,Wuan,CN,53.22,clear sky,31.6836,112.0044,
212,Nhulunbuy,AU,75.81,overcast clouds,-12.2333,136.7667,
215,Beisfjord,NO,30.25,light snow,68.3751,17.5988,
216,Vitoria Da Conquista,BR,83.17,scattered clouds,-14.8661,-40.8394,
218,Westport,US,50.86,clear sky,41.1415,-73.3579,
220,Fiumicino,IT,49.98,broken clouds,41.7675,12.2291,
223,Ayagoz,KZ,33.17,few clouds,47.9714,80.4392,
225,Yeppoon,AU,71.38,clear sky,-23.1333,150.7333,
228,Christchurch,NZ,57.94,overcast clouds,-43.5333,172.6333,
229,La Baule-Escoublac,FR,47.71,clear sky,47.2922,-2.364,
230,Moron,AR,70.95,clear sky,-34.6534,-58.6198,
231,Saint-Philippe,RE,74.79,very heavy rain,-21.3585,55.7679,
232,Saint-Leu,RE,74.26,heavy intensity rain,-21.15,55.2833,
233,Nuuk,GL,38.01,broken clouds,64.1835,-51.7216,
234,Alhandra,BR,88.02,scattered clouds,-7.4386,-34.9144,
235,Nassjo,SE,36.52,scattered clouds,57.6531,14.6968,
236,Cerignola,IT,49.57,overcast clouds,41.264,15.9005,
237,Borskoye,RU,45.05,overcast clouds,53.0333,51.7167,
238,Perpignan,FR,45.73,few clouds,42.75,2.75,
239,Kaeo,NZ,59.32,overcast clouds,-35.1,173.7833,
240,Pisco,PE,70.02,clear sky,-13.7,-76.2167,
241,Puerto Escondido,MX,86.59,broken clouds,15.85,-97.0667,
242,Byron Bay,AU,67.89,scattered clouds,-28.65,153.6167,
243,Lebu,CL,59.88,overcast clouds,-37.6167,-73.65,
244,Sampit,ID,75.99,overcast clouds,-2.5333,112.95,
245,East London,ZA,63.54,broken clouds,-33.0153,27.9116,
247,Akhmeta,GE,63.12,broken clouds,42.0311,45.2075,
249,Bonavista,CA,37.67,overcast clouds,48.6499,-53.1147,
250,Marsa Matruh,EG,66.4,haze,31.3525,27.2453,
251,Marystown,CA,38.86,overcast clouds,47.1666,-55.1483,
252,Alofi,NU,73.29,overcast clouds,-19.0595,-169.9187,
253,Dagua,CO,82.83,broken clouds,3.6569,-76.6886,
254,Svetlogorsk,BY,32.86,light snow,52.6333,29.7333,
255,Chumikan,RU,34.27,overcast clouds,54.7183,135.315,
257,Tuatapere,NZ,48.79,broken clouds,-46.1333,167.6833,
261,Cascais,PT,65.52,clear sky,38.6979,-9.4215,
262,Micoud,LC,84.13,broken clouds,13.8167,-60.9,
263,Iberia,US,74.97,clear sky,29.9502,-91.7507,
265,Muroto,JP,52.45,overcast clouds,33.2833,134.15,
266,Hoa Binh,VN,60.03,broken clouds,20.8133,105.3383,
268,Thinadhoo,MV,83.17,clear sky,0.5333,72.9333,
269,Battle Creek,US,43.05,clear sky,42.3212,-85.1797,
271,Wewak,PG,77.47,overcast clouds,-3.5534,143.6268,
272,Guayaramerin,BO,77.05,clear sky,-10.8368,-65.3614,
273,Aleksandrov Gay,RU,59.59,broken clouds,50.147,48.5704,
274,Cortes,ES,50.05,scattered clouds,41.9395,-1.4396,
275,Lata,PT,61.92,broken clouds,40.1629,-8.3327,
277,Pagangan,PH,73.33,overcast clouds,7.1144,124.5953,
278,Port Blair,IN,84.24,scattered clouds,11.6667,92.75,
279,Hegang,CN,35.8,broken clouds,47.4,130.3667,
280,Saint-Francois,FR,35.67,light snow,46.4154,3.9054,
281,Noumea,NC,82.99,overcast clouds,-22.2763,166.4572,
282,Poya,NC,78.01,overcast clouds,-21.35,165.15,
283,Jorhat,IN,71.71,scattered clouds,26.75,94.2167,
284,Karratha,AU,82.8,broken clouds,-20.7377,116.8463,
285,Japura,ID,76.06,broken clouds,-0.3167,102.35,
289,Margate,GB,44.11,few clouds,51.3813,1.3862,
290,Chatrapur,IN,80.06,clear sky,19.35,84.9833,
291,Santa Cruz,BO,77.05,few clouds,-17.8,-63.1667,
292,Bathsheba,BB,84.81,few clouds,13.2167,-59.5167,
293,Lasa,IT,38.28,overcast clouds,46.6166,10.7002,
294,Mount Gambier,AU,53.51,broken clouds,-37.8333,140.7667,
296,Arraial Do Cabo,BR,80.56,broken clouds,-22.9661,-42.0278,
297,Nishihara,JP,63.68,overcast clouds,26.1842,127.7558,
298,San Cristobal,VE,78.98,scattered clouds,7.7669,-72.225,
299,Ahipara,NZ,62.58,light rain,-35.1667,173.1667,
300,Mapimi,MX,77.67,clear sky,25.8167,-103.85,
301,Auki,SB,76.19,overcast clouds,-8.7676,160.7034,
302,Jiblah,YE,65.7,clear sky,13.9216,44.1467,
303,Gilroy,US,66.04,clear sky,37.0058,-121.5683,
304,Omboue,GA,76.32,overcast clouds,-1.5746,9.2618,
306,Quelimane,MZ,82.35,few clouds,-17.8786,36.8883,
307,Manta,EC,82.18,broken clouds,-0.95,-80.7333,
308,Dingle,PH,76.14,broken clouds,10.9995,122.6711,
309,Novosheshminsk,RU,35.74,overcast clouds,55.0651,51.2338,
310,Geraldton,AU,73.81,overcast clouds,-28.7667,114.6,
312,Iracoubo,GF,79.38,light rain,5.4802,-53.2011,
313,Ponta Delgada,PT,63.32,few clouds,37.7333,-25.6667,
314,Pacific Grove,US,54.41,mist,36.6177,-121.9166,
315,Kewanee,US,44.47,overcast clouds,41.2456,-89.9248,
316,Denpasar,ID,80.26,scattered clouds,-8.65,115.2167,
317,Tautira,PF,81.55,overcast clouds,-17.7333,-149.15,
319,Aitape,PG,77.83,overcast clouds,-3.1374,142.3475,
320,Beloha,MG,74.8,clear sky,-25.1667,45.05,
321,San Rafael,AR,74.79,clear sky,-34.6177,-68.3301,
322,Grand Gaube,MU,75.38,heavy intensity rain,-20.0064,57.6608,
323,Xiaoweizhai,CN,47.12,few clouds,26.1903,107.5125,
324,Phan Thiet,VN,77.56,overcast clouds,10.9333,108.1,
325,Laval,CA,42.91,few clouds,45.57,-73.692,
326,San Andres,CO,86.02,scattered clouds,12.5847,-81.7006,
327,Oranjestad,AW,87.75,few clouds,12.524,-70.027,
328,Korem,ET,60.51,clear sky,12.5058,39.5228,
329,Rio Bananal,BR,88.23,scattered clouds,-19.265,-40.3333,
330,Salto,UY,70.88,clear sky,-31.3833,-57.9667,
333,Fort Dodge,US,44.6,overcast clouds,42.4975,-94.168,
336,Morro Bay,US,60.15,scattered clouds,35.3658,-120.8499,
337,Almeirim,BR,83.41,broken clouds,-1.5233,-52.5817,
338,Kekri,IN,86.83,clear sky,25.9667,75.15,
340,Dubrovka,RU,31.53,light snow,53.6907,33.5071,
342,Port Hedland,AU,84.25,broken clouds,-20.3167,118.5667,
343,Ntcheu,MW,65.19,light rain,-14.8203,34.6359,
344,Nisia Floresta,BR,85.01,broken clouds,-6.0911,-35.2086,
345,San Vicente,AR,74.75,scattered clouds,-26.6167,-54.1333,
346,Tezu,IN,69.01,broken clouds,27.9167,96.1667,
349,Shunyi,CN,52.95,clear sky,40.125,116.6453,
351,San Jeronimito,MX,83.93,overcast clouds,17.55,-101.3333,
352,Anatoli,GR,47.95,light rain,39.6389,20.8653,
353,Iwanai,JP,37.27,broken clouds,42.9744,140.5089,
355,Pangai,TO,81.05,broken clouds,-19.8,-174.35,
356,Miraflores,MX,75.87,broken clouds,19.2167,-98.8083,
359,Plettenberg Bay,ZA,61.52,light rain,-34.0527,23.3716,
360,Labuhan,ID,78.24,overcast clouds,-6.8844,112.2051,
361,Lorengau,PG,78.24,light rain,-2.0226,147.2712,
363,La Paz,BO,55.38,broken clouds,-16.5,-68.15,
364,Malinyi,TZ,74.5,light rain,-8.9333,36.1333,
365,Yuryevets,RU,30.67,snow,57.3201,43.1041,
366,Jangipur,IN,83.41,few clouds,24.4667,88.0667,
369,Marawi,PH,68.5,moderate rain,7.9986,124.2928,
370,Souillac,MU,73.78,heavy intensity rain,-20.5167,57.5167,
371,Hastings,GB,48.07,few clouds,50.8552,0.5729,
372,Gallipoli,TR,66.06,broken clouds,40.4103,26.6708,
374,Goderich,CA,39.9,broken clouds,43.7501,-81.7165,
375,Yangambi,CD,76.24,light rain,0.8102,24.4336,
376,Grindavik,IS,46.87,light rain,63.8424,-22.4338,
377,Kenai,US,35.15,broken clouds,60.5544,-151.2583,
378,Spearfish,US,51.12,clear sky,44.4908,-103.8594,
379,Northam,GB,46.62,scattered clouds,51.0333,-4.2167,
381,Imbituba,BR,71.04,broken clouds,-28.24,-48.6703,
382,Orje,NO,38.14,scattered clouds,59.4802,11.6602,
383,Port Hardy,CA,42.8,broken clouds,50.6996,-127.4199,
384,Kavaratti,IN,83.19,scattered clouds,10.5669,72.642,
385,Grand-Santi,GF,82.24,broken clouds,4.25,-54.3833,
386,Bogo,PH,77.32,light rain,11.0517,124.0055,
387,Lewiston,US,46.85,few clouds,44.1003,-70.2148,
388,Naze,JP,61.72,overcast clouds,28.3667,129.4833,
389,Khasan,RU,38.35,clear sky,42.4308,130.6434,
392,Puerto Madryn,AR,80.53,broken clouds,-42.7692,-65.0385,
393,Dryden,CA,35.89,overcast clouds,49.7833,-92.7503,
394,Kruisfontein,ZA,61.88,light rain,-34.0033,24.7314,
395,Iquitos,PE,75.24,broken clouds,-3.7481,-73.2472,
396,Benghazi,LY,65.77,overcast clouds,32.1167,20.0667,
397,Tual,ID,82.18,broken clouds,-5.6667,132.75,
399,Opelousas,US,74.88,clear sky,30.5335,-92.0815,
400,Viedma,AR,76.62,clear sky,-40.8135,-62.9967,
401,Oyon,PE,55.11,overcast clouds,-10.6681,-76.7731,
402,Chapleau,CA,35.69,overcast clouds,47.8405,-83.4034,
403,Comodoro Rivadavia,AR,69.66,clear sky,-45.8667,-67.5,
404,Kamaishi,JP,37.24,clear sky,39.2667,141.8833,
405,Kailua,US,75.18,scattered clouds,21.4022,-157.7394,
406,Dunedin,NZ,53.8,scattered clouds,-45.8742,170.5036,
407,Vila,PT,50.88,clear sky,42.0304,-8.1588,
408,Viseu,PT,58.73,clear sky,40.661,-7.9097,
409,Terre Haute,US,50.25,clear sky,39.4667,-87.4139,
410,Rawson,AR,79.23,broken clouds,-43.3002,-65.1023,
411,Axim,GH,83.86,light rain,4.8699,-2.2405,
412,North Bend,US,50.16,scattered clouds,43.4065,-124.2243,
413,Te Anau,NZ,47.08,few clouds,-45.4167,167.7167,
414,Balykshi,KZ,62.6,smoke,47.0667,51.8667,
415,Kralendijk,BQ,85.98,scattered clouds,12.15,-68.2667,
416,Santa Maria Del Oro,MX,73.04,clear sky,25.9333,-105.3667,
417,Jorpeland,NO,41.74,broken clouds,59.0225,6.0408,
418,Rio Gallegos,AR,50.05,light rain,-51.6226,-69.2181,
419,Kuala Terengganu,MY,78.75,scattered clouds,5.3302,103.1408,
420,Russell,US,63.91,broken clouds,32.3502,-85.1999,
421,Esperance,AU,66.04,clear sky,-33.8667,121.9,
422,Talara,PE,84.96,clear sky,-4.5772,-81.2719,
423,Prescott,US,65.3,clear sky,34.54,-112.4685,
424,Eyl,SO,80.06,few clouds,7.9803,49.8164,
426,Namibe,AO,72.25,overcast clouds,-15.1961,12.1522,
427,Laguna,US,67.17,clear sky,38.421,-121.4238,
428,Pindamonhangaba,BR,78.55,broken clouds,-22.9239,-45.4617,
429,Wana,PK,70.38,clear sky,32.2989,69.5725,
430,Shieli,KZ,59.95,clear sky,44.1667,66.75,
431,Maniitsoq,GL,32.54,overcast clouds,65.4167,-52.9,
433,Tyukalinsk,RU,30.42,snow,55.8732,72.1967,
434,Lingyuan,CN,43.3,clear sky,41.24,119.4011,
435,Jalu,LY,80.56,overcast clouds,29.0331,21.5482,
438,Marsaxlokk,MT,59.61,few clouds,35.8419,14.5431,
439,Gongzhuling,CN,40.23,clear sky,43.5008,124.8198,
440,Metaxades,GR,57.87,clear sky,41.4204,26.225,
441,Hobyo,SO,81.95,scattered clouds,5.3505,48.5268,
442,Neiafu,TO,75.88,scattered clouds,-18.65,-173.9833,
443,Nichinan,JP,50.54,overcast clouds,31.6,131.3667,
445,Vestmannaeyjar,IS,45.59,moderate rain,63.4427,-20.2734,
446,Hanzhong,CN,55.02,scattered clouds,33.0728,107.0303,
447,Corn Island,NI,80.92,overcast clouds,12.1694,-83.0418,
448,Carlagan,PH,79.66,broken clouds,14.975,122.0456,
449,Zhezkazgan,KZ,48.92,few clouds,47.8043,67.7144,
450,Sarakhs,IR,68.0,clear sky,36.5449,61.1577,
451,Antalaha,MG,76.06,broken clouds,-14.9003,50.2788,
452,Portland,US,50.99,overcast clouds,45.5234,-122.6762,
453,Stornoway,GB,46.92,broken clouds,58.2093,-6.3865,
454,Ostersund,SE,32.61,few clouds,63.1792,14.6357,
455,Sao Gabriel Da Cachoeira,BR,78.06,overcast clouds,-0.1303,-67.0892,
456,Bako,ET,71.98,overcast clouds,5.7833,36.5667,
457,Crateus,BR,86.61,broken clouds,-5.1783,-40.6775,
458,Tulsa,US,63.84,clear sky,36.1001,-95.9003,
459,Seybaplaya,MX,88.56,few clouds,19.65,-90.6667,
460,Hasaki,JP,46.8,light rain,35.7333,140.8333,
461,Krumovgrad,BG,58.05,clear sky,41.4667,25.65,
463,Calama,CL,72.09,clear sky,-22.4667,-68.9333,
464,Port Augusta,AU,60.82,overcast clouds,-32.5,137.7667,
465,Virginia Beach,US,55.44,few clouds,36.8529,-75.978,
467,Amritsar,IN,85.82,clear sky,31.6331,74.8656,
468,Pallasovka,RU,59.45,light rain,50.05,46.8833,
469,Zadar,HR,54.21,scattered clouds,44.1197,15.2422,
470,Coquimbo,CL,56.93,overcast clouds,-29.9533,-71.3436,
471,Auburn,US,50.0,overcast clouds,47.3073,-122.2284,
472,Reshetylivka,UA,49.39,overcast clouds,49.565,34.0782,
473,Oktyabrskiy,RU,37.99,overcast clouds,54.4815,53.471,
474,Faya,SA,71.71,clear sky,18.3851,42.4509,
475,Itoman,JP,64.42,overcast clouds,26.1247,127.6694,
476,Fez,MA,70.05,broken clouds,34.0372,-4.9998,
478,Codrington,AU,54.23,light rain,-38.2667,141.9667,
479,Sanchazi,CN,32.25,clear sky,42.0817,126.6003,
480,Ouro Preto Do Oeste,BR,78.08,broken clouds,-10.7481,-62.2158,
481,Erzin,TR,67.24,clear sky,36.9559,36.2,
483,Dixon,US,66.15,clear sky,38.4455,-121.8233,
484,Weihe,CN,47.98,broken clouds,32.9952,105.3247,
485,Malbork,PL,36.88,broken clouds,54.0359,19.0266,
486,Huarmey,PE,75.43,broken clouds,-10.0681,-78.1522,
487,Marevo,RU,30.0,overcast clouds,57.3146,32.0804,
488,Dargaville,NZ,61.95,overcast clouds,-35.9333,173.8833,
489,Turbat,PK,84.13,clear sky,26.0023,63.044,
490,Manjacaze,MZ,78.44,scattered clouds,-24.7117,33.8828,
491,Dingtao,CN,47.19,clear sky,35.0683,115.5625,
492,Brae,GB,41.43,overcast clouds,60.3964,-1.353,
493,Surt,LY,67.87,overcast clouds,31.2089,16.5887,
494,Alyangula,AU,73.27,overcast clouds,-13.8483,136.4192,
495,Yulara,AU,64.24,clear sky,-25.2406,130.9889,
497,Nouadhibou,MR,67.98,clear sky,20.931,-17.0347,
498,Berbera,SO,81.28,clear sky,10.4396,45.0143,
499,Palotina,BR,72.99,overcast clouds,-24.2839,-53.84,
500,Poum,NC,81.73,overcast clouds,-20.2333,164.0167,
501,Kermanshah,IR,67.1,clear sky,34.3142,47.065,
502,Mglin,RU,31.93,light snow,53.0591,32.8475,
503,Kattivakkam,IN,84.29,clear sky,13.2167,80.3167,
504,Vanimo,PG,77.04,moderate rain,-2.6741,141.3028,
505,Skorodnoye,RU,54.37,broken clouds,51.071,37.2276,
506,San Patricio,US,79.07,overcast clouds,28.017,-97.5169,
508,Prince Rupert,CA,42.89,light rain,54.3161,-130.3201,
509,Hervey Bay,AU,69.03,clear sky,-25.2986,152.8535,
510,Mahebourg,MU,75.25,heavy intensity rain,-20.4081,57.7,
511,Tres Arroyos,AR,68.45,clear sky,-38.3739,-60.2798,
512,Sur,OM,82.24,few clouds,22.5667,59.5289,
515,Muisne,EC,82.35,scattered clouds,0.6,-80.0333,
516,Acapulco,MX,82.98,scattered clouds,16.8634,-99.8901,
517,Amapa,BR,79.81,broken clouds,1.0,-52.0,
518,Kudahuvadhoo,MV,83.26,broken clouds,2.6708,72.8944,
521,Sao Joao Da Barra,BR,86.09,clear sky,-21.6403,-41.0511,
522,Skreia,NO,42.33,overcast clouds,60.65,10.9333,
523,Los Alamos,US,57.65,clear sky,35.8881,-106.307,
524,Arrifes,PT,61.05,few clouds,37.7667,-25.7,
525,Santa Maria,BR,72.7,few clouds,-29.6842,-53.8069,
527,Bubaque,GW,75.81,few clouds,11.2833,-15.8333,
528,Sinnamary,GF,79.43,very heavy rain,5.3833,-52.95,
529,Jashpurnagar,IN,77.38,clear sky,22.9,84.15,
531,Medicine Hat,CA,47.71,overcast clouds,50.0501,-110.6683,
532,Vila Velha,BR,89.55,few clouds,-20.3297,-40.2925,
533,Teluknaga,ID,81.18,haze,-6.0989,106.6381,
534,Gat,IL,78.4,overcast clouds,31.61,34.7642,
535,Mainaguri,IN,81.5,scattered clouds,26.5667,88.8167,
536,Buala,SB,79.0,light rain,-8.145,159.5921,
537,Mormugao,IN,83.46,few clouds,15.4,73.8,
538,Sibuco,PH,77.18,moderate rain,7.2911,122.0656,
542,Makarov,RU,32.09,scattered clouds,48.6333,142.8,
544,Trairi,BR,81.72,overcast clouds,-3.2778,-39.2689,
545,Inhambane,MZ,80.58,few clouds,-23.865,35.3833,
546,Richards Bay,ZA,72.57,moderate rain,-28.783,32.0377,
548,Bandar-E Anzali,IR,60.91,clear sky,37.4727,49.4622,
549,Mecca,SA,84.07,clear sky,21.4267,39.8261,
550,Havre-Saint-Pierre,CA,41.36,overcast clouds,50.2334,-63.5986,
551,Chake Chake,TZ,80.51,broken clouds,-5.2459,39.7666,
553,Innisfail,AU,73.67,broken clouds,-17.5333,146.0333,
554,Kot Addu,PK,82.81,clear sky,30.4692,70.9671,
555,Mbala,ZM,61.9,light rain,-8.8402,31.3659,
556,Idappadi,IN,84.43,scattered clouds,11.5833,77.85,
557,Saint-Pierre,RE,74.88,overcast clouds,-21.3393,55.4781,
558,Porbandar,IN,80.02,clear sky,21.6422,69.6093,
559,Garmsar,IR,72.95,clear sky,35.2182,52.3409,
560,Teguise,ES,62.82,scattered clouds,29.0605,-13.564,
561,Vila Franca Do Campo,PT,63.01,clear sky,37.7167,-25.4333,
562,Rancho Palos Verdes,US,61.0,mist,33.7445,-118.387,
563,Xining,CN,41.32,clear sky,36.6167,101.7667,
564,Jardim,BR,81.57,overcast clouds,-21.4803,-56.1381,
565,Balaka,MW,70.07,light rain,-14.9793,34.9558,
567,Mingshui,CN,51.04,clear sky,36.7167,117.5,
568,Clyde,US,44.69,broken clouds,41.3042,-82.9752,
569,Kilindoni,TZ,82.36,few clouds,-7.9139,39.6668,
570,Hambantota,LK,80.73,few clouds,6.1241,81.1185,
571,Tolaga Bay,NZ,60.33,overcast clouds,-38.3667,178.3,
572,Mayo,US,54.18,clear sky,38.8876,-76.5119,
573,Miri,MY,78.94,few clouds,4.4148,114.0089,
575,Yarada,IN,84.52,mist,17.65,83.2667,
576,Yarim,YE,61.81,clear sky,14.298,44.3779,
577,Arica,CL,76.55,clear sky,-18.475,-70.3042,
579,Sumbe,AO,79.0,overcast clouds,-11.2061,13.8437,
580,Xapuri,BR,79.83,broken clouds,-10.6517,-68.5044,
582,Sao Felix Do Xingu,BR,88.34,few clouds,-6.6447,-51.995,
583,Collie,AU,69.85,overcast clouds,-33.3667,116.15,
584,Mechetinskaya,RU,66.69,overcast clouds,46.7713,40.456,
585,Tabas,IR,75.9,clear sky,33.5959,56.9244,
588,Kisangani,CD,75.45,overcast clouds,0.5167,25.2,
589,Marsh Harbour,BS,78.4,clear sky,26.5412,-77.0636,
590,Naron,ES,57.69,clear sky,43.5167,-8.1528,
591,Huangnihe,CN,33.53,clear sky,43.5583,128.0239,
592,Rusape,ZW,64.26,light rain,-18.5278,32.1284,
593,Shingu,JP,49.1,light rain,33.7333,135.9833,
594,Asau,RO,51.28,overcast clouds,46.4333,26.4,
595,Mikhaylovka,RU,66.78,overcast clouds,50.06,43.2379,
596,Sulangan,PH,80.46,overcast clouds,11.1373,123.7228,
598,Lashio,MM,67.71,broken clouds,22.9333,97.75,
599,Quatre Cocos,MU,75.09,moderate rain,-20.2078,57.7625,
600,Gazli,UZ,66.13,clear sky,40.1333,63.45,
601,Port Macquarie,AU,59.9,scattered clouds,-31.4333,152.9167,
602,Tecoanapa,MX,83.23,few clouds,16.5167,-98.75,
603,Camopi,GF,80.02,broken clouds,3.1655,-52.3158,
605,Sao Jose Da Coroa Grande,BR,83.79,scattered clouds,-8.8978,-35.1478,
606,Puerto Madero,MX,86.2,broken clouds,14.7208,-92.4215,
608,Mantua,IT,51.04,overcast clouds,45.1667,10.7833,
609,Santander,ES,49.71,broken clouds,43.4647,-3.8044,
610,Catalina,US,75.74,clear sky,32.5056,-110.9211,
611,Chiautla,MX,76.78,overcast clouds,19.5333,-98.8833,
612,Somerset West,ZA,70.18,few clouds,-34.084,18.8211,
613,Basco,PH,74.89,overcast clouds,20.4487,121.9702,
615,Robe,AU,55.47,overcast clouds,-37.1833,139.75,
617,Porto Novo,BJ,89.42,overcast clouds,6.4965,2.6036,
619,Saint-Jerome,CA,42.22,few clouds,45.7804,-74.0036,
620,Launceston,AU,55.8,overcast clouds,-41.45,147.1667,
621,Orapa,BW,80.55,few clouds,-21.2833,25.3667,
623,Benguela,AO,77.76,overcast clouds,-12.5763,13.4055,
625,Emba,KZ,38.95,overcast clouds,48.8264,58.1442,
626,Aksu,CN,58.15,few clouds,41.1231,80.2644,
627,Tsiroanomandidy,MG,69.75,light rain,-18.7667,46.0333,
628,Male,MV,85.95,few clouds,4.1748,73.5089,
629,Unirea,RO,52.21,broken clouds,44.15,23.1833,
630,Raton,US,61.32,clear sky,36.9034,-104.4391,
631,Prata,BR,87.6,few clouds,-19.3072,-48.9242,
634,Jiwani,PK,79.68,clear sky,25.05,61.7417,
635,Ihosy,MG,67.19,scattered clouds,-22.4,46.1167,
636,Dubna,RU,30.34,light snow,56.7333,37.1667,
637,Riyadh,SA,86.14,clear sky,24.6877,46.7219,
639,Dzaoudzi,YT,82.29,scattered clouds,-12.7887,45.2699,
640,Asilah,MA,62.56,overcast clouds,35.465,-6.0348,
641,Ende,ID,76.26,few clouds,-8.8432,121.6623,
642,Jumla,NP,49.71,clear sky,29.2747,82.1838,
643,Valvedditturai,LK,81.48,few clouds,9.8167,80.1667,
644,Taganak,PH,77.14,overcast clouds,6.0833,118.3,
645,Mpongwe,ZM,66.13,light rain,-13.5091,28.155,
646,Saint-Augustin,CA,32.92,light snow,51.226,-58.6502,
647,Santiago,CL,78.28,clear sky,-33.4569,-70.6483,
648,Flinders,AU,63.18,overcast clouds,-34.5833,150.8552,
649,Hudiksvall,SE,37.35,overcast clouds,61.729,17.1036,
650,San Quintin,MX,60.31,overcast clouds,30.4833,-115.95,
652,Dong Hoi,VN,62.37,overcast clouds,17.4833,106.6,
653,Socorro,US,74.91,clear sky,31.6546,-106.3033,
654,Talcahuano,CL,64.08,broken clouds,-36.7167,-73.1167,
655,Fare,PF,81.99,overcast clouds,-16.7,-151.0167,
656,Awjilah,LY,80.74,overcast clouds,29.1081,21.2869,
657,Maumere,ID,78.67,few clouds,-8.6199,122.2111,
658,Vangaindrano,MG,72.43,light rain,-23.35,47.6,
659,Kishcha,RU,52.66,scattered clouds,42.1768,47.5812,
660,Tete,MZ,78.89,thunderstorm with rain,-16.1564,33.5867,
661,Port Hawkesbury,CA,39.18,light rain,45.6169,-61.3485,
662,Dmitriyevka,RU,36.95,overcast clouds,54.75,55.3333,
663,Vaitape,PF,81.93,overcast clouds,-16.5167,-151.75,
664,Lerwick,GB,41.0,overcast clouds,60.1545,-1.1494,
665,Isla Mujeres,MX,86.16,clear sky,21.2311,-86.731,
666,Otradnoye,RU,32.05,scattered clouds,59.7775,30.8181,
667,Calbuco,CL,58.21,moderate rain,-41.768,-73.1273,
668,Biak,ID,76.26,light rain,-0.9131,122.8766,
669,Dakar,SN,81.48,clear sky,14.6937,-17.4441,
670,Tondano,ID,66.29,overcast clouds,1.3038,124.9112,
671,Kaseda,JP,52.43,overcast clouds,31.4167,130.3167,
672,Kismayo,SO,81.05,broken clouds,-0.3582,42.5454,
673,Colac,AU,57.16,light rain,-38.3333,143.5833,
674,Turayf,SA,82.65,clear sky,31.6725,38.6637,
675,Gizo,SB,80.74,moderate rain,-8.103,156.8419,
676,Lagos,NG,89.92,broken clouds,6.5833,3.75,
677,Maputo,MZ,80.28,few clouds,-25.9653,32.5892,
680,Baryatino,RU,31.01,light snow,54.3121,34.521,
681,Kot Diji,PK,84.22,clear sky,27.3427,68.7083,
682,Sibolga,ID,77.76,overcast clouds,1.7427,98.7792,
683,Ixtapa,MX,84.18,scattered clouds,20.7,-105.2,
686,Alcala De Henares,ES,52.52,few clouds,40.4821,-3.36,
689,Kuala Lipis,MY,74.14,overcast clouds,4.1842,102.0468,
690,Vestmanna,FO,41.92,overcast clouds,62.1564,-7.1664,
691,Ayame,CI,84.31,light rain,5.6083,-3.1563,
692,Pathein,MM,77.54,broken clouds,16.7833,94.7333,
693,Shache,CN,62.19,overcast clouds,38.4167,77.2406,
694,Takoradi,GH,84.22,light rain,4.8845,-1.7554,
695,Saint Anthony,US,46.33,broken clouds,45.0205,-93.218,
696,Cockburn Town,TC,80.56,scattered clouds,21.4612,-71.1419,
697,Broken Hill,AU,53.31,clear sky,-31.95,141.4333,
699,Mocuba,MZ,72.46,light rain,-16.8392,36.9856,
700,Porto Tolle,IT,50.41,broken clouds,44.9497,12.3245,
701,Tura,IN,72.05,few clouds,25.5198,90.2201,
702,Olinda,BR,85.73,few clouds,-8.0089,-34.8553,
703,Karatau,KZ,53.13,clear sky,43.1667,70.4667,
704,Bandar,ID,73.78,overcast clouds,2.05,99.75,
705,Baoding,CN,47.03,clear sky,38.8511,115.4903,
706,Tabou,CI,81.39,light rain,4.423,-7.3528,
707,Bindura,ZW,68.05,broken clouds,-17.3019,31.3306,
709,Saint Joseph,US,56.55,broken clouds,39.7686,-94.8466,
710,Cheremkhovo,RU,30.06,overcast clouds,53.1561,103.0675,
711,Troy,US,43.0,clear sky,42.6056,-83.1499,
712,Gravdal,NO,32.29,light snow,68.1214,13.5031,
713,Sidney,AU,60.28,clear sky,-33.8679,151.2073,
